[
	{
		"id": "الرسول-١",
		"group": "الرسول",
		"start": "-000053-03-22",
		"content": "الميلاد",
		"type": "point",
		"location": {
			"name": "مكة",
			"lat": 21.3891,
			"lng": 39.8579
		}
	},
	{
		"id": "الرسول-٢",
		"group": "الرسول",
		"start": "-000013-09",
		"content": "البعثة",
		"type": "point",
		"location": {
			"name": "مكة",
			"lat": 21.3891,
			"lng": 39.8579
		}
	},
	{
		"id": "الرسول-٣",
		"group": "الرسول",
		"start": "-000007-01",
		"end": "-000005-01",
		"content": "المقاطعة",
		"location": {
			"name": "مكة",
			"lat": 21.3891,
			"lng": 39.8579
		}
	},
	{
		"id": "الرسول-٤",
		"group": "الرسول",
		"start": "-000004-01",
		"content": "وفاة السيدة خديجة",
		"type": "point",
		"location": {
			"name": "مكة",
			"lat": 21.3891,
			"lng": 39.8579
		}
	},
	{
		"id": "الرسول-٥",
		"group": "الرسول",
		"start": "-000004-03",
		"content": "وفاة أبو طالب",
		"type": "point",
		"location": {
			"name": "مكة",
			"lat": 21.3891,
			"lng": 39.8579
		}
	},
	{
		"id": "الرسول-٦",
		"group": "الرسول",
		"start": "-000003-07",
		"content": "الإسراء والمعراج",
		"type": "point",
		"location": {
			"name": "القدس",
			"lat": 31.7761,
			"lng": 35.2358
		}
	},
	{
		"id": "الرسول-٧",
		"group": "الرسول",
		"start": "-000002-12",
		"content": "بيعة العقبة الأولى",
		"type": "point",
		"location": {
			"name": "العقبة",
			"lat": 27.15,
			"lng": 37.05
		}
	},
	{
		"id": "الرسول-٨",
		"group": "الرسول",
		"start": "-000001-12",
		"content": "بيعة العقبة الثانية",
		"type": "point",
		"location": {
			"name": "العقبة",
			"lat": 27.15,
			"lng": 37.05
		}
	},
	{
		"id": "الرسول-٩",
		"group": "الرسول",
		"start": "0000-01-01",
		"content": "الهجرة",
		"type": "point",
		"location": {
			"name": "المدينة",
			"lat": 24.5247,
			"lng": 39.5692
		}
	},
	{
		"id": "الرسول-١٠",
		"group": "الرسول",
		"start": "0006-09",
		"content": "حديث الإفك",
		"type": "point"
	},
	{
		"id": "الرسول-١١",
		"group": "الرسول",
		"start": "0006-11",
		"content": "بيعة الرضوان",
		"type": "point",
		"location": {
			"name": "الحديبية",
			"lat": 21.442102,
			"lng": 39.625658
		}
	},
	{
		"id": "الرسول-١٢",
		"group": "الرسول",
		"start": "0006-11",
		"content": "صلح الحديبية",
		"type": "point",
		"location": {
			"name": "الحديبية",
			"lat": 21.442102,
			"lng": 39.625658
		}
	}
]